NGO_Name,Target_Group,Type,Latitude,Longitude,Nutritional_Needs
Helping Hands NGO,Children,NGO,28.6139,77.209,High Protein
Elder Aid Shelter,Elderly,Shelter,28.7041,77.1025,Balanced Diet
Hope Foundation,General Public,NGO,28.5355,77.391,Any
City Relief Group,Homeless,Shelter,28.4595,77.0266,High Calories
Nourish Kids,Children,NGO,28.6667,77.2167,Protein & Fat Rich
